{
    "type": "FeatureCollection",
    "features": [
      {
        "type": "Feature",
        "properties": {
          "nombre": "Parque Melgar"
        },
        "geometry": {
          "type": "Point",
          "coordinates": [-16.40851, -71.54208]
        }
      },
      {
        "type": "Feature",
        "properties": {
          "nombre": "Bonifaz"
        },
        "geometry": {
          "type": "Point",
          "coordinates": [-16.40863, -71.53955]
        }
      },
      {
        "type": "Feature",
        "properties": {
          "nombre": "28 de Julio"
        },
        "geometry": {
          "type": "Point",
          "coordinates": [-16.40496, -71.53759]
        }
      },
      {
        "type": "Feature",
        "properties": {
          "nombre": "San Camilo"
        },
        "geometry": {
          "type": "Point",
          "coordinates": [-16.40195, -71.53636]
        }
      },
      {
        "type": "Feature",
        "properties": {
          "nombre": "Melgar"
        },
        "geometry": {
          "type": "Point",
          "coordinates": [-16.39575, -71.53388]
        }
      },
      {
        "type": "Feature",
        "properties": {
          "nombre": "Av. Juan De La Torre"
        },
        "geometry": {
          "type": "Point",
          "coordinates": [-16.39186, -71.53238]
        }
      },
      {
        "type": "Feature",
        "properties": {
          "nombre": "Av. Progreso"
        },
        "geometry": {
          "type": "Point",
          "coordinates": [-16.38958, -71.52682]
        }
      },
      {
        "type": "Feature",
        "properties": {
          "nombre": "Av. Arequipa"
        },
        "geometry": {
          "type": "Point",
          "coordinates": [-16.38899, -71.52609]
        }
      },
      {
        "type": "Feature",
        "properties": {
          "nombre": "Puente de la Amistad"
        },
        "geometry": {
          "type": "Point",
          "coordinates": [-16.38502, -71.52064]
        }
      },
      {
        "type": "Feature",
        "properties": {
          "nombre": "America"
        },
        "geometry": {
          "type": "Point",
          "coordinates": [-16.38235, -71.51697]
        }
      },
      {
        "type": "Feature",
        "properties": {
          "nombre": "Av. España"
        },
        "geometry": {
          "type": "Point",
          "coordinates": [-16.38068, -71.51802]
        }
      },
      {
        "type": "Feature",
        "properties": {
          "nombre": "Av. 12 de Octubre"
        },
        "geometry": {
          "type": "Point",
          "coordinates": [-16.37903, -71.51787]
        }
      },
      {
        "type": "Feature",
        "properties": {
          "nombre": "Av. Huascar"
        },
        "geometry": {
          "type": "Point",
          "coordinates": [-16.37762, -71.51556]
        }
      },
      {
        "type": "Feature",
        "properties": {
          "nombre": "Leticia"
        },
        "geometry": {
          "type": "Point",
          "coordinates": [-16.37611, -71.51312]
        }
      },
      {
        "type": "Feature",
        "properties": {
          "nombre": "Av. Lima"
        },
        "geometry": {
          "type": "Point",
          "coordinates": [-16.37338, -71.51171]
        }
      },
      {
        "type": "Feature",
        "properties": {
          "nombre": "Los Claveles"
        },
        "geometry": {
          "type": "Point",
          "coordinates": [-16.37176, -71.5129]
        }
      },
      {
        "type": "Feature",
        "properties": {
          "nombre": "Flores"
        },
        "geometry": {
          "type": "Point",
          "coordinates": [-16.36893, -71.50925]
        }
      },
      {
        "type": "Feature",
        "properties": {
          "nombre": "Av. Juan Velazco Alvarado"
        },
        "geometry": {
          "type": "Point",
          "coordinates": [-16.36838, -71.50724]
        }
      },
      {
        "type": "Feature",
        "properties": {
          "nombre": "Av. Circunvalación"
        },
        "geometry": {
          "type": "Point",
          "coordinates": [-16.36968, -71.50381]
        }
      },
      {
        "type": "Feature",
        "properties": {
          "nombre": "ESPIRITU SANTO"
        },
        "geometry": {
          "type": "Point",
          "coordinates": [-16.36569, -71.50214]
        }
      }
    ]
  }
  